$GPGGA,100313.893,6129.676,N,00848.745,E,1,12,1.0,0.0,M,0.0,M,,*65
$GPGSA,A,3,01,02,03,04,05,06,07,08,09,10,11,12,1.0,1.0,1.0*30
$GPRMC,100313.893,A,6129.676,N,00848.745,E,475.1,046.2,180123,000.0,W*7F
$GPGGA,100314.893,6129.794,N,00848.868,E,1,12,1.0,0.0,M,0.0,M,,*6F
$GPGSA,A,3,01,02,03,04,05,06,07,08,09,10,11,12,1.0,1.0,1.0*30
$GPRMC,100314.893,A,6129.794,N,00848.868,E,514.7,351.8,180123,000.0,W*7A
$GPGGA,100315.893,6129.937,N,00848.848,E,1,12,1.0,0.0,M,0.0,M,,*6B
$GPGSA,A,3,01,02,03,04,05,06,07,08,09,10,11,12,1.0,1.0,1.0*30
$GPRMC,100315.893,A,6129.937,N,00848.848,E,445.8,346.0,180123,000.0,W*7A
$GPGGA,100316.893,6130.060,N,00848.817,E,1,12,1.0,0.0,M,0.0,M,,*61
$GPGSA,A,3,01,02,03,04,05,06,07,08,09,10,11,12,1.0,1.0,1.0*30
$GPRMC,100316.893,A,6130.060,N,00848.817,E,514.6,292.5,180123,000.0,W*76
$GPGGA,100317.893,6130.153,N,00848.590,E,1,12,1.0,0.0,M,0.0,M,,*63
$GPGSA,A,3,01,02,03,04,05,06,07,08,09,10,11,12,1.0,1.0,1.0*30
$GPRMC,100317.893,A,6130.153,N,00848.590,E,464.7,299.5,180123,000.0,W*78
$GPGGA,100318.893,6130.251,N,00848.415,E,1,12,1.0,0.0,M,0.0,M,,*61
$GPGSA,A,3,01,02,03,04,05,06,07,08,09,10,11,12,1.0,1.0,1.0*30
$GPRMC,100318.893,A,6130.251,N,00848.415,E,526.3,323.3,180123,000.0,W*7F
$GPGGA,100319.893,6130.389,N,00848.312,E,1,12,1.0,0.0,M,0.0,M,,*64
$GPGSA,A,3,01,02,03,04,05,06,07,08,09,10,11,12,1.0,1.0,1.0*30
$GPRMC,100319.893,A,6130.389,N,00848.312,E,419.6,312.5,180123,000.0,W*76
$GPGGA,100320.893,6130.492,N,00848.199,E,1,12,1.0,0.0,M,0.0,M,,*62
$GPGSA,A,3,01,02,03,04,05,06,07,08,09,10,11,12,1.0,1.0,1.0*30
$GPRMC,100320.893,A,6130.492,N,00848.199,E,447.8,279.1,180123,000.0,W*7D
$GPGGA,100321.893,6130.532,N,00847.951,E,1,12,1.0,0.0,M,0.0,M,,*6B
$GPGSA,A,3,01,02,03,04,05,06,07,08,09,10,11,12,1.0,1.0,1.0*30
$GPRMC,100321.893,A,6130.532,N,00847.951,E,411.7,282.9,180123,000.0,W*74
$GPGGA,100322.893,6130.581,N,00847.735,E,1,12,1.0,0.0,M,0.0,M,,*6C
$GPGSA,A,3,01,02,03,04,05,06,07,08,09,10,11,12,1.0,1.0,1.0*30
$GPRMC,100322.893,A,6130.581,N,00847.735,E,426.2,267.7,180123,000.0,W*77
$GPGGA,100323.893,6130.571,N,00847.488,E,1,12,1.0,0.0,M,0.0,M,,*67
$GPGSA,A,3,01,02,03,04,05,06,07,08,09,10,11,12,1.0,1.0,1.0*30
$GPRMC,100323.893,A,6130.571,N,00847.488,E,506.8,264.1,180123,000.0,W*70
$GPGGA,100324.893,6130.541,N,00847.200,E,1,12,1.0,0.0,M,0.0,M,,*65
$GPGSA,A,3,01,02,03,04,05,06,07,08,09,10,11,12,1.0,1.0,1.0*30
$GPRMC,100324.893,A,6130.541,N,00847.200,E,498.4,267.1,180123,000.0,W*7B
$GPGGA,100325.893,6130.527,N,00846.911,E,1,12,1.0,0.0,M,0.0,M,,*6E
$GPGSA,A,3,01,02,03,04,05,06,07,08,09,10,11,12,1.0,1.0,1.0*30
$GPRMC,100325.893,A,6130.527,N,00846.911,E,364.5,255.1,180123,000.0,W*74
$GPGGA,100326.893,6130.478,N,00846.726,E,1,12,1.0,0.0,M,0.0,M,,*6C
$GPGSA,A,3,01,02,03,04,05,06,07,08,09,10,11,12,1.0,1.0,1.0*30
$GPRMC,100326.893,A,6130.478,N,00846.726,E,388.2,257.8,180123,000.0,W*78
$GPGGA,100327.893,6130.433,N,00846.520,E,1,12,1.0,0.0,M,0.0,M,,*66
$GPGSA,A,3,01,02,03,04,05,06,07,08,09,10,11,12,1.0,1.0,1.0*30
$GPRMC,100327.893,A,6130.433,N,00846.520,E,414.7,240.1,180123,000.0,W*7A
$GPGGA,100328.893,6130.345,N,00846.365,E,1,12,1.0,0.0,M,0.0,M,,*68
$GPGSA,A,3,01,02,03,04,05,06,07,08,09,10,11,12,1.0,1.0,1.0*30
$GPRMC,100328.893,A,6130.345,N,00846.365,E,828.7,279.9,180123,000.0,W*75
$GPGGA,100329.893,6130.423,N,00845.912,E,1,12,1.0,0.0,M,0.0,M,,*67
$GPGSA,A,3,01,02,03,04,05,06,07,08,09,10,11,12,1.0,1.0,1.0*30
$GPRMC,100329.893,A,6130.423,N,00845.912,E,729.2,267.3,180123,000.0,W*74
$GPGGA,100330.893,6130.404,N,00845.490,E,1,12,1.0,0.0,M,0.0,M,,*6D
$GPGSA,A,3,01,02,03,04,05,06,07,08,09,10,11,12,1.0,1.0,1.0*30
$GPRMC,100330.893,A,6130.404,N,00845.490,E,582.2,260.3,180123,000.0,W*7A
$GPGGA,100331.893,6130.350,N,00845.171,E,1,12,1.0,0.0,M,0.0,M,,*60
$GPGSA,A,3,01,02,03,04,05,06,07,08,09,10,11,12,1.0,1.0,1.0*30
$GPRMC,100331.893,A,6130.350,N,00845.171,E,567.5,271.7,180123,000.0,W*7F
$GPGGA,100332.893,6130.360,N,00844.841,E,1,12,1.0,0.0,M,0.0,M,,*6B
$GPGSA,A,3,01,02,03,04,05,06,07,08,09,10,11,12,1.0,1.0,1.0*30
$GPRMC,100332.893,A,6130.360,N,00844.841,E,520.6,261.2,180123,000.0,W*70
$GPGGA,100333.893,6130.315,N,00844.553,E,1,12,1.0,0.0,M,0.0,M,,*66
$GPGSA,A,3,01,02,03,04,05,06,07,08,09,10,11,12,1.0,1.0,1.0*30
$GPRMC,100333.893,A,6130.315,N,00844.553,E,435.4,256.5,180123,000.0,W*79
$GPGGA,100334.893,6130.261,N,00844.326,E,1,12,1.0,0.0,M,0.0,M,,*67
$GPGSA,A,3,01,02,03,04,05,06,07,08,09,10,11,12,1.0,1.0,1.0*30
$GPRMC,100334.893,A,6130.261,N,00844.326,E,263.2,260.3,180123,000.0,W*78
$GPGGA,100335.893,6130.237,N,00844.182,E,1,12,1.0,0.0,M,0.0,M,,*69
$GPGSA,A,3,01,02,03,04,05,06,07,08,09,10,11,12,1.0,1.0,1.0*30
$GPRMC,100335.893,A,6130.237,N,00844.182,E,375.5,266.1,180123,000.0,W*73
$GPGGA,100336.893,6130.222,N,00843.965,E,1,12,1.0,0.0,M,0.0,M,,*68
$GPGSA,A,3,01,02,03,04,05,06,07,08,09,10,11,12,1.0,1.0,1.0*30
$GPRMC,100336.893,A,6130.222,N,00843.965,E,343.7,264.2,180123,000.0,W*74
$GPGGA,100337.893,6130.202,N,00843.770,E,1,12,1.0,0.0,M,0.0,M,,*61
$GPGSA,A,3,01,02,03,04,05,06,07,08,09,10,11,12,1.0,1.0,1.0*30
$GPRMC,100337.893,A,6130.202,N,00843.770,E,293.0,257.4,180123,000.0,W*70
$GPGGA,100338.893,6130.168,N,00843.615,E,1,12,1.0,0.0,M,0.0,M,,*63
$GPGSA,A,3,01,02,03,04,05,06,07,08,09,10,11,12,1.0,1.0,1.0*30
$GPRMC,100338.893,A,6130.168,N,00843.615,E,309.2,258.1,180123,000.0,W*78
$GPGGA,100339.893,6130.134,N,00843.450,E,1,12,1.0,0.0,M,0.0,M,,*68
$GPGSA,A,3,01,02,03,04,05,06,07,08,09,10,11,12,1.0,1.0,1.0*30
$GPRMC,100339.893,A,6130.134,N,00843.450,E,267.9,266.3,180123,000.0,W*7E
$GPGGA,100340.893,6130.124,N,00843.296,E,1,12,1.0,0.0,M,0.0,M,,*6B
$GPGSA,A,3,01,02,03,04,05,06,07,08,09,10,11,12,1.0,1.0,1.0*30
$GPRMC,100340.893,A,6130.124,N,00843.296,E,274.8,262.7,180123,000.0,W*7E
$GPGGA,100341.893,6130.104,N,00843.141,E,1,12,1.0,0.0,M,0.0,M,,*61
$GPGSA,A,3,01,02,03,04,05,06,07,08,09,10,11,12,1.0,1.0,1.0*30
$GPRMC,100341.893,A,6130.104,N,00843.141,E,343.7,264.2,180123,000.0,W*7D
$GPGGA,100342.893,6130.084,N,00842.946,E,1,12,1.0,0.0,M,0.0,M,,*65
$GPGSA,A,3,01,02,03,04,05,06,07,08,09,10,11,12,1.0,1.0,1.0*30
$GPRMC,100342.893,A,6130.084,N,00842.946,E,269.7,281.6,180123,000.0,W*7F
$GPGGA,100343.893,6130.114,N,00842.802,E,1,12,1.0,0.0,M,0.0,M,,*6D
$GPGSA,A,3,01,02,03,04,05,06,07,08,09,10,11,12,1.0,1.0,1.0*30
$GPRMC,100343.893,A,6130.114,N,00842.802,E,555.6,285.9,180123,000.0,W*75
$GPGGA,100344.893,6130.193,N,00842.523,E,1,12,1.0,0.0,M,0.0,M,,*6B
$GPGSA,A,3,01,02,03,04,05,06,07,08,09,10,11,12,1.0,1.0,1.0*30
$GPRMC,100344.893,A,6130.193,N,00842.523,E,451.3,275.5,180123,000.0,W*70
$GPGGA,100345.893,6130.217,N,00842.266,E,1,12,1.0,0.0,M,0.0,M,,*63
$GPGSA,A,3,01,02,03,04,05,06,07,08,09,10,11,12,1.0,1.0,1.0*30
$GPRMC,100345.893,A,6130.217,N,00842.266,E,576.3,275.1,180123,000.0,W*78
$GPGGA,100346.893,6130.247,N,00841.936,E,1,12,1.0,0.0,M,0.0,M,,*68
$GPGSA,A,3,01,02,03,04,05,06,07,08,09,10,11,12,1.0,1.0,1.0*30
$GPRMC,100346.893,A,6130.247,N,00841.936,E,673.6,271.4,180123,000.0,W*71
$GPGGA,100347.893,6130.256,N,00841.545,E,1,12,1.0,0.0,M,0.0,M,,*61
$GPGSA,A,3,01,02,03,04,05,06,07,08,09,10,11,12,1.0,1.0,1.0*30
$GPRMC,100347.893,A,6130.256,N,00841.545,E,448.2,265.6,180123,000.0,W*71
$GPGGA,100348.893,6130.237,N,00841.288,E,1,12,1.0,0.0,M,0.0,M,,*6F
$GPGSA,A,3,01,02,03,04,05,06,07,08,09,10,11,12,1.0,1.0,1.0*30
$GPRMC,100348.893,A,6130.237,N,00841.288,E,476.6,277.4,180123,000.0,W*77
$GPGGA,100349.893,6130.271,N,00841.020,E,1,12,1.0,0.0,M,0.0,M,,*6C
$GPGSA,A,3,01,02,03,04,05,06,07,08,09,10,11,12,1.0,1.0,1.0*30
$GPRMC,100349.893,A,6130.271,N,00841.020,E,514.6,247.5,180123,000.0,W*73
$GPGGA,100350.893,6130.178,N,00840.793,E,1,12,1.0,0.0,M,0.0,M,,*60
$GPGSA,A,3,01,02,03,04,05,06,07,08,09,10,11,12,1.0,1.0,1.0*30
$GPRMC,100350.893,A,6130.178,N,00840.793,E,431.1,260.5,180123,000.0,W*7B
$GPGGA,100351.893,6130.138,N,00840.556,E,1,12,1.0,0.0,M,0.0,M,,*6E
$GPGSA,A,3,01,02,03,04,05,06,07,08,09,10,11,12,1.0,1.0,1.0*30
$GPRMC,100351.893,A,6130.138,N,00840.556,E,515.5,262.2,180123,000.0,W*73
$GPGGA,100352.893,6130.099,N,00840.268,E,1,12,1.0,0.0,M,0.0,M,,*6D
$GPGSA,A,3,01,02,03,04,05,06,07,08,09,10,11,12,1.0,1.0,1.0*30
$GPRMC,100352.893,A,6130.099,N,00840.268,E,478.3,271.0,180123,000.0,W*7C
$GPGGA,100353.893,6130.104,N,00839.990,E,1,12,1.0,0.0,M,0.0,M,,*6B
$GPGSA,A,3,01,02,03,04,05,06,07,08,09,10,11,12,1.0,1.0,1.0*30
$GPRMC,100353.893,A,6130.104,N,00839.990,E,356.3,256.5,180123,000.0,W*71
$GPGGA,100354.893,6130.060,N,00839.804,E,1,12,1.0,0.0,M,0.0,M,,*63
$GPGSA,A,3,01,02,03,04,05,06,07,08,09,10,11,12,1.0,1.0,1.0*30
$GPRMC,100354.893,A,6130.060,N,00839.804,E,393.1,250.9,180123,000.0,W*78
$GPGGA,100355.893,6129.996,N,00839.619,E,1,12,1.0,0.0,M,0.0,M,,*68
$GPGSA,A,3,01,02,03,04,05,06,07,08,09,10,11,12,1.0,1.0,1.0*30
$GPRMC,100355.893,A,6129.996,N,00839.619,E,425.3,268.9,180123,000.0,W*70
$GPGGA,100356.893,6129.991,N,00839.372,E,1,12,1.0,0.0,M,0.0,M,,*64
$GPGSA,A,3,01,02,03,04,05,06,07,08,09,10,11,12,1.0,1.0,1.0*30
$GPRMC,100356.893,A,6129.991,N,00839.372,E,253.5,275.9,180123,000.0,W*71
$GPGGA,100357.893,6130.006,N,00839.228,E,1,12,1.0,0.0,M,0.0,M,,*64
$GPGSA,A,3,01,02,03,04,05,06,07,08,09,10,11,12,1.0,1.0,1.0*30
$GPRMC,100357.893,A,6130.006,N,00839.228,E,246.0,254.4,180123,000.0,W*7E
$GPGGA,100358.893,6129.971,N,00839.104,E,1,12,1.0,0.0,M,0.0,M,,*67
$GPGSA,A,3,01,02,03,04,05,06,07,08,09,10,11,12,1.0,1.0,1.0*30
$GPRMC,100358.893,A,6129.971,N,00839.104,E,428.2,266.6,180123,000.0,W*72
$GPGGA,100359.893,6129.957,N,00838.857,E,1,12,1.0,0.0,M,0.0,M,,*6C
$GPGSA,A,3,01,02,03,04,05,06,07,08,09,10,11,12,1.0,1.0,1.0*30
$GPRMC,100359.893,A,6129.957,N,00838.857,E,354.5,268.6,180123,000.0,W*7C
$GPGGA,100400.893,6129.952,N,00838.651,E,1,12,1.0,0.0,M,0.0,M,,*6A
$GPGSA,A,3,01,02,03,04,05,06,07,08,09,10,11,12,1.0,1.0,1.0*30
$GPRMC,100400.893,A,6129.952,N,00838.651,E,361.1,264.5,180123,000.0,W*77
$GPGGA,100401.893,6129.932,N,00838.445,E,1,12,1.0,0.0,M,0.0,M,,*6A
$GPGSA,A,3,01,02,03,04,05,06,07,08,09,10,11,12,1.0,1.0,1.0*30
$GPRMC,100401.893,A,6129.932,N,00838.445,E,301.5,268.4,180123,000.0,W*78
$GPGGA,100402.893,6129.927,N,00838.270,E,1,12,1.0,0.0,M,0.0,M,,*6D
$GPGSA,A,3,01,02,03,04,05,06,07,08,09,10,11,12,1.0,1.0,1.0*30
$GPRMC,100402.893,A,6129.927,N,00838.270,E,301.5,268.4,180123,000.0,W*7F
$GPGGA,100403.893,6129.922,N,00838.095,E,1,12,1.0,0.0,M,0.0,M,,*60
$GPGSA,A,3,01,02,03,04,05,06,07,08,09,10,11,12,1.0,1.0,1.0*30
$GPRMC,100403.893,A,6129.922,N,00838.095,E,386.7,262.2,180123,000.0,W*73
$GPGGA,100404.893,6129.893,N,00837.878,E,1,12,1.0,0.0,M,0.0,M,,*68
$GPGSA,A,3,01,02,03,04,05,06,07,08,09,10,11,12,1.0,1.0,1.0*30
$GPRMC,100404.893,A,6129.893,N,00837.878,E,213.2,272.3,180123,000.0,W*73
$GPGGA,100405.893,6129.898,N,00837.755,E,1,12,1.0,0.0,M,0.0,M,,*62
$GPGSA,A,3,01,02,03,04,05,06,07,08,09,10,11,12,1.0,1.0,1.0*30
$GPRMC,100405.893,A,6129.898,N,00837.755,E,288.2,264.9,180123,000.0,W*76
$GPGGA,100406.893,6129.883,N,00837.590,E,1,12,1.0,0.0,M,0.0,M,,*60
$GPGSA,A,3,01,02,03,04,05,06,07,08,09,10,11,12,1.0,1.0,1.0*30
$GPRMC,100406.893,A,6129.883,N,00837.590,E,599.1,215.6,180123,000.0,W*79
$GPGGA,100407.893,6129.726,N,00837.477,E,1,12,1.0,0.0,M,0.0,M,,*69
$GPGSA,A,3,01,02,03,04,05,06,07,08,09,10,11,12,1.0,1.0,1.0*30
$GPRMC,100407.893,A,6129.726,N,00837.477,E,305.7,159.8,180123,000.0,W*70
$GPGGA,100408.893,6129.642,N,00837.508,E,1,12,1.0,0.0,M,0.0,M,,*6C
$GPGSA,A,3,01,02,03,04,05,06,07,08,09,10,11,12,1.0,1.0,1.0*30
$GPRMC,100408.893,A,6129.642,N,00837.508,E,467.8,130.3,180123,000.0,W*7D
$GPGGA,100409.893,6129.529,N,00837.641,E,1,12,1.0,0.0,M,0.0,M,,*6D
$GPGSA,A,3,01,02,03,04,05,06,07,08,09,10,11,12,1.0,1.0,1.0*30
$GPRMC,100409.893,A,6129.529,N,00837.641,E,177.1,122.6,180123,000.0,W*77
$GPGGA,100410.893,6129.490,N,00837.703,E,1,12,1.0,0.0,M,0.0,M,,*61
$GPGSA,A,3,01,02,03,04,05,06,07,08,09,10,11,12,1.0,1.0,1.0*30
$GPRMC,100410.893,A,6129.490,N,00837.703,E,226.8,121.0,180123,000.0,W*70
$GPGGA,100411.893,6129.441,N,00837.786,E,1,12,1.0,0.0,M,0.0,M,,*61
$GPGSA,A,3,01,02,03,04,05,06,07,08,09,10,11,12,1.0,1.0,1.0*30
$GPRMC,100411.893,A,6129.441,N,00837.786,E,226.8,121.0,180123,000.0,W*70
$GPGGA,100412.893,6129.391,N,00837.868,E,1,12,1.0,0.0,M,0.0,M,,*67
$GPGSA,A,3,01,02,03,04,05,06,07,08,09,10,11,12,1.0,1.0,1.0*30
$GPRMC,100412.893,A,6129.391,N,00837.868,E,226.8,121.0,180123,000.0,W*76
